stamp:
  sec: 0
  nanosec: 0
error_code: 0
imu_state:
  quaternion:
  - -0.999485433101654
  - -0.00772935850545764
  - 0.025916000828146935
  - -0.017254645004868507
  gyroscope:
  - 0.0
  - 0.0
  - 0.0
  accelerometer:
  - 0.0
  - 0.0
  - 0.0
  rpy:
  - 0.014576707035303116
  - -0.05209562927484512
  - 0.0341438427567482
  temperature: 0
mode: 0
progress: 0.0
gait_type: 0
foot_raise_height: 0.0
position:
- 0.0009620226919651031
- -0.004866135306656361
- 0.7269676923751831
body_height: 0.0
velocity:
- -1.3785944474875578e-07
- -4.3882985778509465e-07
- 9.152984148386167e-07
yaw_speed: -0.006981316488236189
range_obstacle:
- 0.0
- 0.0
- 0.0
- 0.0
foot_force:
- 0
- 0
- 0
- 0
foot_position_body:
- 0.0
- 0.0
- 0.0
- 0.0
- 0.0
- 0.0
- 0.0
- 0.0
- 0.0
- 0.0
- 0.0
- 0.0
foot_speed_body:
- 0.0
- 0.0
- 0.0
- 0.0
- 0.0
- 0.0
- 0.0
- 0.0
- 0.0
- 0.0
- 0.0
- 0.0
---
stamp:
  sec: 0
  nanosec: 0
error_code: 0
imu_state:
  quaternion:
  - -0.9994859099388123
  - -0.0077309017069637775
  - 0.025905301794409752
  - -0.01723930984735489
  gyroscope:
  - 0.0
  - 0.0
  - 0.0
  accelerometer:
  - 0.0
  - 0.0
  - 0.0
  rpy:
  - 0.014580954797565937
  - -0.05207405239343643
  - 0.03411319479346275
  temperature: 0
mode: 0
progress: 0.0
gait_type: 0
foot_raise_height: 0.0
position:
- 0.000983353704214096
- -0.004870572127401829
- 0.726967453956604
body_height: 0.0
velocity:
- 3.473073206805566e-07
- -3.856738146623684e-07
- 7.150511578402075e-07
yaw_speed: 0.0017453291220590472
range_obstacle:
- 0.0
- 0.0
- 0.0
- 0.0
foot_force:
- 0
- 0
- 0
- 0
foot_position_body:
- 0.0
- 0.0
- 0.0
- 0.0
- 0.0
- 0.0
- 0.0
- 0.0
- 0.0
- 0.0
- 0.0
- 0.0
foot_speed_body:
- 0.0
- 0.0
- 0.0
- 0.0
- 0.0
- 0.0
- 0.0
- 0.0
- 0.0
- 0.0
- 0.0
- 0.0
---
stamp:
  sec: 0
  nanosec: 0
error_code: 0
imu_state:
  quaternion:
  - -0.9994859099388123
  - -0.0077309017069637775
  - 0.025905301794409752
  - -0.01723930984735489
  gyroscope:
  - 0.0
  - 0.0
  - 0.0
  accelerometer:
  - 0.0
  - 0.0
  - 0.0
  rpy:
  - 0.014580954797565937
  - -0.05207405239343643
  - 0.03411319479346275
  temperature: 0
mode: 0
progress: 0.0
gait_type: 0
foot_raise_height: 0.0
position:
- 0.000983353704214096
- -0.004870572127401829
- 0.726967453956604
body_height: 0.0
velocity:
- 3.473073206805566e-07
- -3.856738146623684e-07
- 7.150511578402075e-07
yaw_speed: 0.0017453291220590472
range_obstacle:
- 0.0
- 0.0
- 0.0
- 0.0
foot_force:
- 0
- 0
- 0
- 0
foot_position_body:
- 0.0
- 0.0
- 0.0
- 0.0
- 0.0
- 0.0
- 0.0
- 0.0
- 0.0
- 0.0
- 0.0
- 0.0
foot_speed_body:
- 0.0
- 0.0
- 0.0
- 0.0
- 0.0
- 0.0
- 0.0
- 0.0
- 0.0
- 0.0
- 0.0
- 0.0
---
stamp:
  sec: 0
  nanosec: 0
error_code: 0
imu_state:
  quaternion:
  - -0.9994859099388123
  - -0.0077309017069637775
  - 0.025905301794409752
  - -0.01723930984735489
  gyroscope:
  - 0.0
  - 0.0
  - 0.0
  accelerometer:
  - 0.0
  - 0.0
  - 0.0
  rpy:
  - 0.014580954797565937
  - -0.05207405239343643
  - 0.03411319479346275
  temperature: 0
mode: 0
progress: 0.0
gait_type: 0
foot_raise_height: 0.0
position:
- 0.000983353704214096
- -0.004870572127401829
- 0.726967453956604
body_height: 0.0
velocity:
- 3.473073206805566e-07
- -3.856738146623684e-07
- 7.150511578402075e-07
yaw_speed: 0.0017453291220590472
range_obstacle:
- 0.0
- 0.0
- 0.0
- 0.0
foot_force:
- 0
- 0
- 0
- 0
foot_position_body:
- 0.0
- 0.0
- 0.0
- 0.0
- 0.0
- 0.0
- 0.0
- 0.0
- 0.0
- 0.0
- 0.0
- 0.0
foot_speed_body:
- 0.0
- 0.0
- 0.0
- 0.0
- 0.0
- 0.0
- 0.0
- 0.0
- 0.0
- 0.0
- 0.0
- 0.0
---
stamp:
  sec: 0
  nanosec: 0
error_code: 0
imu_state:
  quaternion:
  - -0.999485969543457
  - -0.007727558724582195
  - 0.02590220980346203
  - -0.017246784642338753
  gyroscope:
  - 0.0
  - 0.0
  - 0.0
  accelerometer:
  - 0.0
  - 0.0
  - 0.0
  rpy:
  - 0.014573976397514343
  - -0.052067868411540985
  - 0.03412836790084839
  temperature: 0
mode: 0
progress: 0.0
gait_type: 0
foot_raise_height: 0.0
position:
- 0.0009815990924835205
- -0.004865119233727455
- 0.7269673347473145
body_height: 0.0
velocity:
- 2.0015554014207737e-07
- -1.3462859271839989e-07
- 6.146165105747059e-07
yaw_speed: 0.0034906582441180944
range_obstacle:
- 0.0
- 0.0
- 0.0
- 0.0
foot_force:
- 0
- 0
- 0
- 0
foot_position_body:
- 0.0
- 0.0
- 0.0
- 0.0
- 0.0
- 0.0
- 0.0
- 0.0
- 0.0
- 0.0
- 0.0
- 0.0
foot_speed_body:
- 0.0
- 0.0
- 0.0
- 0.0
- 0.0
- 0.0
- 0.0
- 0.0
- 0.0
- 0.0
- 0.0
- 0.0
---
stamp:
  sec: 0
  nanosec: 0
error_code: 0
imu_state:
  quaternion:
  - -0.999485969543457
  - -0.007727558724582195
  - 0.02590220980346203
  - -0.017246784642338753
  gyroscope:
  - 0.0
  - 0.0
  - 0.0
  accelerometer:
  - 0.0
  - 0.0
  - 0.0
  rpy:
  - 0.014573976397514343
  - -0.052067868411540985
  - 0.03412836790084839
  temperature: 0
mode: 0
progress: 0.0
gait_type: 0
foot_raise_height: 0.0
position:
- 0.0009815990924835205
- -0.004865119233727455
- 0.7269673347473145
body_height: 0.0
velocity:
- 2.0015554014207737e-07
- -1.3462859271839989e-07
- 6.146165105747059e-07
yaw_speed: 0.0034906582441180944
range_obstacle:
- 0.0
- 0.0
- 0.0
- 0.0
foot_force:
- 0
- 0
- 0
- 0
foot_position_body:
- 0.0
- 0.0
- 0.0
- 0.0
- 0.0
- 0.0
- 0.0
- 0.0
- 0.0
- 0.0
- 0.0
- 0.0
foot_speed_body:
- 0.0
- 0.0
- 0.0
- 0.0
- 0.0
- 0.0
- 0.0
- 0.0
- 0.0
- 0.0
- 0.0
- 0.0
---
stamp:
  sec: 0
  nanosec: 0
error_code: 0
imu_state:
  quaternion:
  - -0.999485969543457
  - -0.007727558724582195
  - 0.02590220980346203
  - -0.017246784642338753
  gyroscope:
  - 0.0
  - 0.0
  - 0.0
  accelerometer:
  - 0.0
  - 0.0
  - 0.0
  rpy:
  - 0.014573976397514343
  - -0.052067868411540985
  - 0.03412836790084839
  temperature: 0
mode: 0
progress: 0.0
gait_type: 0
foot_raise_height: 0.0
position:
- 0.0009815990924835205
- -0.004865119233727455
- 0.7269673347473145
body_height: 0.0
velocity:
- 2.0015554014207737e-07
- -1.3462859271839989e-07
- 6.146165105747059e-07
yaw_speed: 0.0034906582441180944
range_obstacle:
- 0.0
- 0.0
- 0.0
- 0.0
foot_force:
- 0
- 0
- 0
- 0
foot_position_body:
- 0.0
- 0.0
- 0.0
- 0.0
- 0.0
- 0.0
- 0.0
- 0.0
- 0.0
- 0.0
- 0.0
- 0.0
foot_speed_body:
- 0.0
- 0.0
- 0.0
- 0.0
- 0.0
- 0.0
- 0.0
- 0.0
- 0.0
- 0.0
- 0.0
- 0.0
---
stamp:
  sec: 0
  nanosec: 0
error_code: 0
imu_state:
  quaternion:
  - -0.9994862079620361
  - -0.007726985961198807
  - 0.02589600719511509
  - -0.017240040004253387
  gyroscope:
  - 0.0
  - 0.0
  - 0.0
  accelerometer:
  - 0.0
  - 0.0
  - 0.0
  rpy:
  - 0.014573388732969761
  - -0.05205533653497696
  - 0.034114982932806015
  temperature: 0
mode: 0
progress: 0.0
gait_type: 0
foot_raise_height: 0.0
position:
- 0.0009908713400363922
- -0.004868321120738983
- 0.7269670963287354
body_height: 0.0
velocity:
- 3.1799490329831315e-07
- -1.572178973674454e-07
- 4.5534903847510577e-07
yaw_speed: -0.0017453291220590472
range_obstacle:
- 0.0
- 0.0
- 0.0
- 0.0
foot_force:
- 0
- 0
- 0
- 0
foot_position_body:
- 0.0
- 0.0
- 0.0
- 0.0
- 0.0
- 0.0
- 0.0
- 0.0
- 0.0
- 0.0
- 0.0
- 0.0
foot_speed_body:
- 0.0
- 0.0
- 0.0
- 0.0
- 0.0
- 0.0
- 0.0
- 0.0
- 0.0
- 0.0
- 0.0
- 0.0
---
stamp:
  sec: 0
  nanosec: 0
error_code: 0
imu_state:
  quaternion:
  - -0.9994862079620361
  - -0.007726985961198807
  - 0.02589600719511509
  - -0.017240040004253387
  gyroscope:
  - 0.0
  - 0.0
  - 0.0
  accelerometer:
  - 0.0
  - 0.0
  - 0.0
  rpy:
  - 0.014573388732969761
  - -0.05205533653497696
  - 0.034114982932806015
  temperature: 0
mode: 0
progress: 0.0
gait_type: 0
foot_raise_height: 0.0
position:
- 0.0009908713400363922
- -0.004868321120738983
- 0.7269670963287354
body_height: 0.0
velocity:
- 3.1799490329831315e-07
- -1.572178973674454e-07
- 4.5534903847510577e-07
yaw_speed: -0.0017453291220590472
range_obstacle:
- 0.0
- 0.0
- 0.0
- 0.0
foot_force:
- 0
- 0
- 0
- 0
foot_position_body:
- 0.0
- 0.0
- 0.0
- 0.0
- 0.0
- 0.0
- 0.0
- 0.0
- 0.0
- 0.0
- 0.0
- 0.0
foot_speed_body:
- 0.0
- 0.0
- 0.0
- 0.0
- 0.0
- 0.0
- 0.0
- 0.0
- 0.0
- 0.0
- 0.0
- 0.0
---
stamp:
  sec: 0
  nanosec: 0
error_code: 0
imu_state:
  quaternion:
  - -0.9994862079620361
  - -0.007726665120571852
  - 0.025901714339852333
  - -0.017230307683348656
  gyroscope:
  - 0.0
  - 0.0
  - 0.0
  accelerometer:
  - 0.0
  - 0.0
  - 0.0
  rpy:
  - 0.01457306370139122
  - -0.05206659808754921
  - 0.034095440059900284
  temperature: 0
mode: 0
progress: 0.0
gait_type: 0
foot_raise_height: 0.0
position:
- 0.0009855963289737701
- -0.0048646098002791405
- 0.726966917514801
body_height: 0.0
velocity:
- 1.0376199099937367e-07
- -2.1596765265030626e-08
- 3.543005675510358e-07
yaw_speed: 0.0
range_obstacle:
- 0.0
- 0.0
- 0.0
- 0.0
foot_force:
- 0
- 0
- 0
- 0
foot_position_body:
- 0.0
- 0.0
- 0.0
- 0.0
- 0.0
- 0.0
- 0.0
- 0.0
- 0.0
- 0.0
- 0.0
- 0.0
foot_speed_body:
- 0.0
- 0.0
- 0.0
- 0.0
- 0.0
- 0.0
- 0.0
- 0.0
- 0.0
- 0.0
- 0.0
- 0.0
---
stamp:
  sec: 0
  nanosec: 0
error_code: 0
imu_state:
  quaternion:
  - -0.9994862079620361
  - -0.007726665120571852
  - 0.025901714339852333
  - -0.017230307683348656
  gyroscope:
  - 0.0
  - 0.0
  - 0.0
  accelerometer:
  - 0.0
  - 0.0
  - 0.0
  rpy:
  - 0.01457306370139122
  - -0.05206659808754921
  - 0.034095440059900284
  temperature: 0
mode: 0
progress: 0.0
gait_type: 0
foot_raise_height: 0.0
position:
- 0.0009855963289737701
- -0.0048646098002791405
- 0.726966917514801
body_height: 0.0
velocity:
- 1.0376199099937367e-07
- -2.1596765265030626e-08
- 3.543005675510358e-07
yaw_speed: 0.0
range_obstacle:
- 0.0
- 0.0
- 0.0
- 0.0
foot_force:
- 0
- 0
- 0
- 0
foot_position_body:
- 0.0
- 0.0
- 0.0
- 0.0
- 0.0
- 0.0
- 0.0
- 0.0
- 0.0
- 0.0
- 0.0
- 0.0
foot_speed_body:
- 0.0
- 0.0
- 0.0
- 0.0
- 0.0
- 0.0
- 0.0
- 0.0
- 0.0
- 0.0
- 0.0
- 0.0
---
stamp:
  sec: 0
  nanosec: 0
error_code: 0
imu_state:
  quaternion:
  - -0.9994857907295227
  - -0.007719107437878847
  - 0.025917623192071915
  - -0.017236171290278435
  gyroscope:
  - 0.0
  - 0.0
  - 0.0
  accelerometer:
  - 0.0
  - 0.0
  - 0.0
  rpy:
  - 0.014557098038494587
  - -0.05209825560450554
  - 0.03410736843943596
  temperature: 0
mode: 0
progress: 0.0
gait_type: 0
foot_raise_height: 0.0
position:
- 0.0009662546217441559
- -0.004856860265135765
- 0.726966917514801
body_height: 0.0
velocity:
- -3.1197888006317953e-07
- 1.5873251868470106e-07
- 3.8284443348857167e-07
yaw_speed: 0.006981316488236189
range_obstacle:
- 0.0
- 0.0
- 0.0
- 0.0
foot_force:
- 0
- 0
- 0
- 0
foot_position_body:
- 0.0
- 0.0
- 0.0
- 0.0
- 0.0
- 0.0
- 0.0
- 0.0
- 0.0
- 0.0
- 0.0
- 0.0
foot_speed_body:
- 0.0
- 0.0
- 0.0
- 0.0
- 0.0
- 0.0
- 0.0
- 0.0
- 0.0
- 0.0
- 0.0
- 0.0
---
stamp:
  sec: 0
  nanosec: 0
error_code: 0
imu_state:
  quaternion:
  - -0.9994857907295227
  - -0.007719107437878847
  - 0.025917623192071915
  - -0.017236171290278435
  gyroscope:
  - 0.0
  - 0.0
  - 0.0
  accelerometer:
  - 0.0
  - 0.0
  - 0.0
  rpy:
  - 0.014557098038494587
  - -0.05209825560450554
  - 0.03410736843943596
  temperature: 0
mode: 0
progress: 0.0
gait_type: 0
foot_raise_height: 0.0
position:
- 0.0009662546217441559
- -0.004856860265135765
- 0.726966917514801
body_height: 0.0
velocity:
- -3.1197888006317953e-07
- 1.5873251868470106e-07
- 3.8284443348857167e-07
yaw_speed: 0.006981316488236189
range_obstacle:
- 0.0
- 0.0
- 0.0
- 0.0
foot_force:
- 0
- 0
- 0
- 0
foot_position_body:
- 0.0
- 0.0
- 0.0
- 0.0
- 0.0
- 0.0
- 0.0
- 0.0
- 0.0
- 0.0
- 0.0
- 0.0
foot_speed_body:
- 0.0
- 0.0
- 0.0
- 0.0
- 0.0
- 0.0
- 0.0
- 0.0
- 0.0
- 0.0
- 0.0
- 0.0
---
stamp:
  sec: 0
  nanosec: 0
error_code: 0
imu_state:
  quaternion:
  - -0.9994856715202332
  - -0.007718820124864578
  - 0.025917623192071915
  - -0.017245523631572723
  gyroscope:
  - 0.0
  - 0.0
  - 0.0
  accelerometer:
  - 0.0
  - 0.0
  - 0.0
  rpy:
  - 0.014556032605469227
  - -0.05209838226437569
  - 0.03412610664963722
  temperature: 0
mode: 0
progress: 0.0
gait_type: 0
foot_raise_height: 0.0
position:
- 0.0009666904807090759
- -0.0048537421971559525
- 0.7269668579101562
body_height: 0.0
velocity:
- -1.8469631868356373e-07
- 1.666896736196577e-07
- 3.49354564832538e-07
yaw_speed: 0.0017453291220590472
range_obstacle:
- 0.0
- 0.0
- 0.0
- 0.0
foot_force:
- 0
- 0
- 0
- 0
foot_position_body:
- 0.0
- 0.0
- 0.0
- 0.0
- 0.0
- 0.0
- 0.0
- 0.0
- 0.0
- 0.0
- 0.0
- 0.0
foot_speed_body:
- 0.0
- 0.0
- 0.0
- 0.0
- 0.0
- 0.0
- 0.0
- 0.0
- 0.0
- 0.0
- 0.0
- 0.0
---
stamp:
  sec: 0
  nanosec: 0
error_code: 0
imu_state:
  quaternion:
  - -0.9994856715202332
  - -0.007718820124864578
  - 0.025917623192071915
  - -0.017245523631572723
  gyroscope:
  - 0.0
  - 0.0
  - 0.0
  accelerometer:
  - 0.0
  - 0.0
  - 0.0
  rpy:
  - 0.014556032605469227
  - -0.05209838226437569
  - 0.03412610664963722
  temperature: 0
mode: 0
progress: 0.0
gait_type: 0
foot_raise_height: 0.0
position:
- 0.0009666904807090759
- -0.0048537421971559525
- 0.7269668579101562
body_height: 0.0
velocity:
- -1.8469631868356373e-07
- 1.666896736196577e-07
- 3.49354564832538e-07
yaw_speed: 0.0017453291220590472
range_obstacle:
- 0.0
- 0.0
- 0.0
- 0.0
foot_force:
- 0
- 0
- 0
- 0
foot_position_body:
- 0.0
- 0.0
- 0.0
- 0.0
- 0.0
- 0.0
- 0.0
- 0.0
- 0.0
- 0.0
- 0.0
- 0.0
foot_speed_body:
- 0.0
- 0.0
- 0.0
- 0.0
- 0.0
- 0.0
- 0.0
- 0.0
- 0.0
- 0.0
- 0.0
- 0.0
---
stamp:
  sec: 0
  nanosec: 0
error_code: 0
imu_state:
  quaternion:
  - -0.9994856715202332
  - -0.007720891386270523
  - 0.025919079780578613
  - -0.017242027446627617
  gyroscope:
  - 0.0
  - 0.0
  - 0.0
  accelerometer:
  - 0.0
  - 0.0
  - 0.0
  rpy:
  - 0.01456031296402216
  - -0.052101314067840576
  - 0.034118980169296265
  temperature: 0
mode: 0
progress: 0.0
gait_type: 0
foot_raise_height: 0.0
position:
- 0.0009587854146957397
- -0.004857026040554047
- 0.726966917514801
body_height: 0.0
velocity:
- -2.7342892394699447e-07
- 4.869173864108234e-08
- 3.848021492558473e-07
yaw_speed: 0.0
range_obstacle:
- 0.0
- 0.0
- 0.0
- 0.0
foot_force:
- 0
- 0
- 0
- 0
foot_position_body:
- 0.0
- 0.0
- 0.0
- 0.0
- 0.0
- 0.0
- 0.0
- 0.0
- 0.0
- 0.0
- 0.0
- 0.0
foot_speed_body:
- 0.0
- 0.0
- 0.0
- 0.0
- 0.0
- 0.0
- 0.0
- 0.0
- 0.0
- 0.0
- 0.0
- 0.0
---
stamp:
  sec: 0
  nanosec: 0
error_code: 0
imu_state:
  quaternion:
  - -0.9994856715202332
  - -0.007720891386270523
  - 0.025919079780578613
  - -0.017242027446627617
  gyroscope:
  - 0.0
  - 0.0
  - 0.0
  accelerometer:
  - 0.0
  - 0.0
  - 0.0
  rpy:
  - 0.01456031296402216
  - -0.052101314067840576
  - 0.034118980169296265
  temperature: 0
mode: 0
progress: 0.0
gait_type: 0
foot_raise_height: 0.0
position:
- 0.0009587854146957397
- -0.004857026040554047
- 0.726966917514801
body_height: 0.0
velocity:
- -2.7342892394699447e-07
- 4.869173864108234e-08
- 3.848021492558473e-07
yaw_speed: 0.0
range_obstacle:
- 0.0
- 0.0
- 0.0
- 0.0
foot_force:
- 0
- 0
- 0
- 0
foot_position_body:
- 0.0
- 0.0
- 0.0
- 0.0
- 0.0
- 0.0
- 0.0
- 0.0
- 0.0
- 0.0
- 0.0
- 0.0
foot_speed_body:
- 0.0
- 0.0
- 0.0
- 0.0
- 0.0
- 0.0
- 0.0
- 0.0
- 0.0
- 0.0
- 0.0
- 0.0
---
stamp:
  sec: 0
  nanosec: 0
error_code: 0
imu_state:
  quaternion:
  - -0.9994857907295227
  - -0.007722649723291397
  - 0.025916090235114098
  - -0.017238445580005646
  gyroscope:
  - 0.0
  - 0.0
  - 0.0
  accelerometer:
  - 0.0
  - 0.0
  - 0.0
  rpy:
  - 0.014564119279384613
  - -0.05209534615278244
  - 0.03411175683140755
  temperature: 0
mode: 0
progress: 0.0
gait_type: 0
foot_raise_height: 0.0
position:
- 0.0009624846279621124
- -0.0048583438619971275
- 0.726966917514801
body_height: 0.0
velocity:
- -9.538126732877572e-08
- 4.014726773249322e-09
- 3.779749988552794e-07
yaw_speed: 0.0017453291220590472
range_obstacle:
- 0.0
- 0.0
- 0.0
- 0.0
foot_force:
- 0
- 0
- 0
- 0
foot_position_body:
- 0.0
- 0.0
- 0.0
- 0.0
- 0.0
- 0.0
- 0.0
- 0.0
- 0.0
- 0.0
- 0.0
- 0.0
foot_speed_body:
- 0.0
- 0.0
- 0.0
- 0.0
- 0.0
- 0.0
- 0.0
- 0.0
- 0.0
- 0.0
- 0.0
- 0.0
---
stamp:
  sec: 0
  nanosec: 0
error_code: 0
imu_state:
  quaternion:
  - -0.9994857907295227
  - -0.007722649723291397
  - 0.025916090235114098
  - -0.017238445580005646
  gyroscope:
  - 0.0
  - 0.0
  - 0.0
  accelerometer:
  - 0.0
  - 0.0
  - 0.0
  rpy:
  - 0.014564119279384613
  - -0.05209534615278244
  - 0.03411175683140755
  temperature: 0
mode: 0
progress: 0.0
gait_type: 0
foot_raise_height: 0.0
position:
- 0.0009624846279621124
- -0.0048583438619971275
- 0.726966917514801
body_height: 0.0
velocity:
- -9.538126732877572e-08
- 4.014726773249322e-09
- 3.779749988552794e-07
yaw_speed: 0.0017453291220590472
range_obstacle:
- 0.0
- 0.0
- 0.0
- 0.0
foot_force:
- 0
- 0
- 0
- 0
foot_position_body:
- 0.0
- 0.0
- 0.0
- 0.0
- 0.0
- 0.0
- 0.0
- 0.0
- 0.0
- 0.0
- 0.0
- 0.0
foot_speed_body:
- 0.0
- 0.0
- 0.0
- 0.0
- 0.0
- 0.0
- 0.0
- 0.0
- 0.0
- 0.0
- 0.0
- 0.0
---
stamp:
  sec: 0
  nanosec: 0
error_code: 0
imu_state:
  quaternion:
  - -0.9994860291481018
  - -0.007724601309746504
  - 0.025904571637511253
  - -0.01723949797451496
  gyroscope:
  - 0.0
  - 0.0
  - 0.0
  accelerometer:
  - 0.0
  - 0.0
  - 0.0
  rpy:
  - 0.014568356797099113
  - -0.05207237973809242
  - 0.03411391004920006
  temperature: 0
mode: 0
progress: 0.0
gait_type: 0
foot_raise_height: 0.0
position:
- 0.0009717009961605072
- -0.00486118346452713
- 0.7269668579101562
body_height: 0.0
velocity:
- 1.2672590798956662e-07
- -6.043652689413648e-08
- 3.053444572742592e-07
yaw_speed: 0.0017453291220590472
range_obstacle:
- 0.0
- 0.0
- 0.0
- 0.0
foot_force:
- 0
- 0
- 0
- 0
foot_position_body:
- 0.0
- 0.0
- 0.0
- 0.0
- 0.0
- 0.0
- 0.0
- 0.0
- 0.0
- 0.0
- 0.0
- 0.0
foot_speed_body:
- 0.0
- 0.0
- 0.0
- 0.0
- 0.0
- 0.0
- 0.0
- 0.0
- 0.0
- 0.0
- 0.0
- 0.0
---
stamp:
  sec: 0
  nanosec: 0
error_code: 0
imu_state:
  quaternion:
  - -0.9994860291481018
  - -0.007724601309746504
  - 0.025904571637511253
  - -0.01723949797451496
  gyroscope:
  - 0.0
  - 0.0
  - 0.0
  accelerometer:
  - 0.0
  - 0.0
  - 0.0
  rpy:
  - 0.014568356797099113
  - -0.05207237973809242
  - 0.03411391004920006
  temperature: 0
mode: 0
progress: 0.0
gait_type: 0
foot_raise_height: 0.0
position:
- 0.0009717009961605072
- -0.00486118346452713
- 0.7269668579101562
body_height: 0.0
velocity:
- 1.2672590798956662e-07
- -6.043652689413648e-08
- 3.053444572742592e-07
yaw_speed: 0.0017453291220590472
range_obstacle:
- 0.0
- 0.0
- 0.0
- 0.0
foot_force:
- 0
- 0
- 0
- 0
foot_position_body:
- 0.0
- 0.0
- 0.0
- 0.0
- 0.0
- 0.0
- 0.0
- 0.0
- 0.0
- 0.0
- 0.0
- 0.0
foot_speed_body:
- 0.0
- 0.0
- 0.0
- 0.0
- 0.0
- 0.0
- 0.0
- 0.0
- 0.0
- 0.0
- 0.0
- 0.0
---
stamp:
  sec: 0
  nanosec: 0
error_code: 0
imu_state:
  quaternion:
  - -0.9994863867759705
  - -0.007724560797214508
  - 0.025898102670907974
  - -0.01722855120897293
  gyroscope:
  - 0.0
  - 0.0
  - 0.0
  accelerometer:
  - 0.0
  - 0.0
  - 0.0
  rpy:
  - 0.014569062739610672
  - -0.05205927789211273
  - 0.03409207612276077
  temperature: 0
mode: 0
progress: 0.0
gait_type: 0
foot_raise_height: 0.0
position:
- 0.0009870193898677826
- -0.004860552027821541
- 0.7269667387008667
body_height: 0.0
velocity:
- 3.924065481442085e-07
- -3.688972327609008e-08
- 1.86572819416142e-07
yaw_speed: -0.0017453291220590472
range_obstacle:
- 0.0
- 0.0
- 0.0
- 0.0
foot_force:
- 0
- 0
- 0
- 0
foot_position_body:
- 0.0
- 0.0
- 0.0
- 0.0
- 0.0
- 0.0
- 0.0
- 0.0
- 0.0
- 0.0
- 0.0
- 0.0
foot_speed_body:
- 0.0
- 0.0
- 0.0
- 0.0
- 0.0
- 0.0
- 0.0
- 0.0
- 0.0
- 0.0
- 0.0
- 0.0
---
stamp:
  sec: 0
  nanosec: 0
error_code: 0
imu_state:
  quaternion:
  - -0.9994863867759705
  - -0.007724560797214508
  - 0.025898102670907974
  - -0.01722855120897293
  gyroscope:
  - 0.0
  - 0.0
  - 0.0
  accelerometer:
  - 0.0
  - 0.0
  - 0.0
  rpy:
  - 0.014569062739610672
  - -0.05205927789211273
  - 0.03409207612276077
  temperature: 0
mode: 0
progress: 0.0
gait_type: 0
foot_raise_height: 0.0
position:
- 0.0009870193898677826
- -0.004860552027821541
- 0.7269667387008667
body_height: 0.0
velocity:
- 3.924065481442085e-07
- -3.688972327609008e-08
- 1.86572819416142e-07
yaw_speed: -0.0017453291220590472
range_obstacle:
- 0.0
- 0.0
- 0.0
- 0.0
foot_force:
- 0
- 0
- 0
- 0
foot_position_body:
- 0.0
- 0.0
- 0.0
- 0.0
- 0.0
- 0.0
- 0.0
- 0.0
- 0.0
- 0.0
- 0.0
- 0.0
foot_speed_body:
- 0.0
- 0.0
- 0.0
- 0.0
- 0.0
- 0.0
- 0.0
- 0.0
- 0.0
- 0.0
- 0.0
- 0.0
---
stamp:
  sec: 0
  nanosec: 0
error_code: 0
imu_state:
  quaternion:
  - -0.9994865655899048
  - -0.0077210683375597
  - 0.025906335562467575
  - -0.017207900062203407
  gyroscope:
  - 0.0
  - 0.0
  - 0.0
  accelerometer:
  - 0.0
  - 0.0
  - 0.0
  rpy:
  - 0.014562873169779778
  - -0.052075326442718506
  - 0.03405080735683441
  temperature: 0
mode: 0
progress: 0.0
gait_type: 0
foot_raise_height: 0.0
position:
- 0.0009881407022476196
- -0.004862874746322632
- 0.7269665598869324
body_height: 0.0
velocity:
- 2.720125280575303e-07
- -7.218206832249052e-08
- 8.098169246295583e-08
yaw_speed: 0.0
range_obstacle:
- 0.0
- 0.0
- 0.0
- 0.0
foot_force:
- 0
- 0
- 0
- 0
foot_position_body:
- 0.0
- 0.0
- 0.0
- 0.0
- 0.0
- 0.0
- 0.0
- 0.0
- 0.0
- 0.0
- 0.0
- 0.0
foot_speed_body:
- 0.0
- 0.0
- 0.0
- 0.0
- 0.0
- 0.0
- 0.0
- 0.0
- 0.0
- 0.0
- 0.0
- 0.0
---
stamp:
  sec: 0
  nanosec: 0
error_code: 0
imu_state:
  quaternion:
  - -0.9994865655899048
  - -0.0077210683375597
  - 0.025906335562467575
  - -0.017207900062203407
  gyroscope:
  - 0.0
  - 0.0
  - 0.0
  accelerometer:
  - 0.0
  - 0.0
  - 0.0
  rpy:
  - 0.014562873169779778
  - -0.052075326442718506
  - 0.03405080735683441
  temperature: 0
mode: 0
progress: 0.0
gait_type: 0
foot_raise_height: 0.0
position:
- 0.0009881407022476196
- -0.004862874746322632
- 0.7269665598869324
body_height: 0.0
velocity:
- 2.720125280575303e-07
- -7.218206832249052e-08
- 8.098169246295583e-08
yaw_speed: 0.0
range_obstacle:
- 0.0
- 0.0
- 0.0
- 0.0
foot_force:
- 0
- 0
- 0
- 0
foot_position_body:
- 0.0
- 0.0
- 0.0
- 0.0
- 0.0
- 0.0
- 0.0
- 0.0
- 0.0
- 0.0
- 0.0
- 0.0
foot_speed_body:
- 0.0
- 0.0
- 0.0
- 0.0
- 0.0
- 0.0
- 0.0
- 0.0
- 0.0
- 0.0
- 0.0
- 0.0
---
stamp:
  sec: 0
  nanosec: 0
error_code: 0
imu_state:
  quaternion:
  - -0.9994866251945496
  - -0.007724968250840902
  - 0.02589956484735012
  - -0.01721193455159664
  gyroscope:
  - 0.0
  - 0.0
  - 0.0
  accelerometer:
  - 0.0
  - 0.0
  - 0.0
  rpy:
  - 0.014570696279406548
  - -0.05206197500228882
  - 0.03405876085162163
  temperature: 0
mode: 0
progress: 0.0
gait_type: 0
foot_raise_height: 0.0
position:
- 0.0009816251695156097
- -0.004865766502916813
- 0.7269665002822876
body_height: 0.0
velocity:
- 4.163932132428272e-08
- -1.0047337184460048e-07
- 6.281107545191844e-08
yaw_speed: 0.00523598724976182
range_obstacle:
- 0.0
- 0.0
- 0.0
- 0.0
foot_force:
- 0
- 0
- 0
- 0
foot_position_body:
- 0.0
- 0.0
- 0.0
- 0.0
- 0.0
- 0.0
- 0.0
- 0.0
- 0.0
- 0.0
- 0.0
- 0.0
foot_speed_body:
- 0.0
- 0.0
- 0.0
- 0.0
- 0.0
- 0.0
- 0.0
- 0.0
- 0.0
- 0.0
- 0.0
- 0.0
---
stamp:
  sec: 0
  nanosec: 0
error_code: 0
imu_state:
  quaternion:
  - -0.9994866251945496
  - -0.007724968250840902
  - 0.02589956484735012
  - -0.01721193455159664
  gyroscope:
  - 0.0
  - 0.0
  - 0.0
  accelerometer:
  - 0.0
  - 0.0
  - 0.0
  rpy:
  - 0.014570696279406548
  - -0.05206197500228882
  - 0.03405876085162163
  temperature: 0
mode: 0
progress: 0.0
gait_type: 0
foot_raise_height: 0.0
position:
- 0.0009816251695156097
- -0.004865766502916813
- 0.7269665002822876
body_height: 0.0
velocity:
- 4.163932132428272e-08
- -1.0047337184460048e-07
- 6.281107545191844e-08
yaw_speed: 0.00523598724976182
range_obstacle:
- 0.0
- 0.0
- 0.0
- 0.0
foot_force:
- 0
- 0
- 0
- 0
foot_position_body:
- 0.0
- 0.0
- 0.0
- 0.0
- 0.0
- 0.0
- 0.0
- 0.0
- 0.0
- 0.0
- 0.0
- 0.0
foot_speed_body:
- 0.0
- 0.0
- 0.0
- 0.0
- 0.0
- 0.0
- 0.0
- 0.0
- 0.0
- 0.0
- 0.0
- 0.0
---
stamp:
  sec: 0
  nanosec: 0
error_code: 0
imu_state:
  quaternion:
  - -0.9994868040084839
  - -0.007731180172413588
  - 0.025884943082928658
  - -0.01722043938934803
  gyroscope:
  - 0.0
  - 0.0
  - 0.0
  accelerometer:
  - 0.0
  - 0.0
  - 0.0
  rpy:
  - 0.014583176001906395
  - -0.052033063024282455
  - 0.03407565504312515
  temperature: 0
mode: 0
progress: 0.0
gait_type: 0
foot_raise_height: 0.0
position:
- 0.0010036341845989227
- -0.004873812198638916
- 0.7269662618637085
body_height: 0.0
velocity:
- 4.597678753270884e-07
- -2.4523725983272016e-07
- -1.117378474191355e-07
yaw_speed: 0.0034906582441180944
range_obstacle:
- 0.0
- 0.0
- 0.0
- 0.0
foot_force:
- 0
- 0
- 0
- 0
foot_position_body:
- 0.0
- 0.0
- 0.0
- 0.0
- 0.0
- 0.0
- 0.0
- 0.0
- 0.0
- 0.0
- 0.0
- 0.0
foot_speed_body:
- 0.0
- 0.0
- 0.0
- 0.0
- 0.0
- 0.0
- 0.0
- 0.0
- 0.0
- 0.0
- 0.0
- 0.0
---
stamp:
  sec: 0
  nanosec: 0
error_code: 0
imu_state:
  quaternion:
  - -0.9994868040084839
  - -0.007731180172413588
  - 0.025884943082928658
  - -0.01722043938934803
  gyroscope:
  - 0.0
  - 0.0
  - 0.0
  accelerometer:
  - 0.0
  - 0.0
  - 0.0
  rpy:
  - 0.014583176001906395
  - -0.052033063024282455
  - 0.03407565504312515
  temperature: 0
mode: 0
progress: 0.0
gait_type: 0
foot_raise_height: 0.0
position:
- 0.0010036341845989227
- -0.004873812198638916
- 0.7269662618637085
body_height: 0.0
velocity:
- 4.597678753270884e-07
- -2.4523725983272016e-07
- -1.117378474191355e-07
yaw_speed: 0.0034906582441180944
range_obstacle:
- 0.0
- 0.0
- 0.0
- 0.0
foot_force:
- 0
- 0
- 0
- 0
foot_position_body:
- 0.0
- 0.0
- 0.0
- 0.0
- 0.0
- 0.0
- 0.0
- 0.0
- 0.0
- 0.0
- 0.0
- 0.0
foot_speed_body:
- 0.0
- 0.0
- 0.0
- 0.0
- 0.0
- 0.0
- 0.0
- 0.0
- 0.0
- 0.0
- 0.0
- 0.0
---
stamp:
  sec: 0
  nanosec: 0
error_code: 0
imu_state:
  quaternion:
  - -0.9994867444038391
  - -0.007736582309007645
  - 0.025883767753839493
  - -0.01722109317779541
  gyroscope:
  - 0.0
  - 0.0
  - 0.0
  accelerometer:
  - 0.0
  - 0.0
  - 0.0
  rpy:
  - 0.014593994244933128
  - -0.052030906081199646
  - 0.03407670930027962
  temperature: 0
mode: 0
progress: 0.0
gait_type: 0
foot_raise_height: 0.0
position:
- 0.001003514975309372
- -0.004877721890807152
- 0.7269660830497742
body_height: 0.0
velocity:
- 2.8303230692472425e-07
- -2.395062210780452e-07
- -2.2809109623267432e-07
yaw_speed: 0.0017453291220590472
range_obstacle:
- 0.0
- 0.0
- 0.0
- 0.0
foot_force:
- 0
- 0
- 0
- 0
foot_position_body:
- 0.0
- 0.0
- 0.0
- 0.0
- 0.0
- 0.0
- 0.0
- 0.0
- 0.0
- 0.0
- 0.0
- 0.0
foot_speed_body:
- 0.0
- 0.0
- 0.0
- 0.0
- 0.0
- 0.0
- 0.0
- 0.0
- 0.0
- 0.0
- 0.0
- 0.0
---
stamp:
  sec: 0
  nanosec: 0
error_code: 0
imu_state:
  quaternion:
  - -0.9994867444038391
  - -0.007736582309007645
  - 0.025883767753839493
  - -0.01722109317779541
  gyroscope:
  - 0.0
  - 0.0
  - 0.0
  accelerometer:
  - 0.0
  - 0.0
  - 0.0
  rpy:
  - 0.014593994244933128
  - -0.052030906081199646
  - 0.03407670930027962
  temperature: 0
mode: 0
progress: 0.0
gait_type: 0
foot_raise_height: 0.0
position:
- 0.001003514975309372
- -0.004877721890807152
- 0.7269660830497742
body_height: 0.0
velocity:
- 2.8303230692472425e-07
- -2.395062210780452e-07
- -2.2809109623267432e-07
yaw_speed: 0.0017453291220590472
range_obstacle:
- 0.0
- 0.0
- 0.0
- 0.0
foot_force:
- 0
- 0
- 0
- 0
foot_position_body:
- 0.0
- 0.0
- 0.0
- 0.0
- 0.0
- 0.0
- 0.0
- 0.0
- 0.0
- 0.0
- 0.0
- 0.0
foot_speed_body:
- 0.0
- 0.0
- 0.0
- 0.0
- 0.0
- 0.0
- 0.0
- 0.0
- 0.0
- 0.0
- 0.0
- 0.0
---
stamp:
  sec: 0
  nanosec: 0
error_code: 0
imu_state:
  quaternion:
  - -0.9994867444038391
  - -0.007735454011708498
  - 0.025886505842208862
  - -0.01721866801381111
  gyroscope:
  - 0.0
  - 0.0
  - 0.0
  accelerometer:
  - 0.0
  - 0.0
  - 0.0
  rpy:
  - 0.014591772109270096
  - -0.052036307752132416
  - 0.034071870148181915
  temperature: 0
mode: 0
progress: 0.0
gait_type: 0
foot_raise_height: 0.0
position:
- 0.0010120570659637451
- -0.004883107729256153
- 0.7269657850265503
body_height: 0.0
velocity:
- 3.3820822409325046e-07
- -2.7326615281708655e-07
- -4.1052007304642757e-07
yaw_speed: 0.0
range_obstacle:
- 0.0
- 0.0
- 0.0
- 0.0
foot_force:
- 0
- 0
- 0
- 0
foot_position_body:
- 0.0
- 0.0
- 0.0
- 0.0
- 0.0
- 0.0
- 0.0
- 0.0
- 0.0
- 0.0
- 0.0
- 0.0
foot_speed_body:
- 0.0
- 0.0
- 0.0
- 0.0
- 0.0
- 0.0
- 0.0
- 0.0
- 0.0
- 0.0
- 0.0
- 0.0
---
stamp:
  sec: 0
  nanosec: 0
error_code: 0
imu_state:
  quaternion:
  - -0.9994867444038391
  - -0.007735454011708498
  - 0.025886505842208862
  - -0.01721866801381111
  gyroscope:
  - 0.0
  - 0.0
  - 0.0
  accelerometer:
  - 0.0
  - 0.0
  - 0.0
  rpy:
  - 0.014591772109270096
  - -0.052036307752132416
  - 0.034071870148181915
  temperature: 0
mode: 0
progress: 0.0
gait_type: 0
foot_raise_height: 0.0
position:
- 0.0010120570659637451
- -0.004883107729256153
- 0.7269657850265503
body_height: 0.0
velocity:
- 3.3820822409325046e-07
- -2.7326615281708655e-07
- -4.1052007304642757e-07
yaw_speed: 0.0
range_obstacle:
- 0.0
- 0.0
- 0.0
- 0.0
foot_force:
- 0
- 0
- 0
- 0
foot_position_body:
- 0.0
- 0.0
- 0.0
- 0.0
- 0.0
- 0.0
- 0.0
- 0.0
- 0.0
- 0.0
- 0.0
- 0.0
foot_speed_body:
- 0.0
- 0.0
- 0.0
- 0.0
- 0.0
- 0.0
- 0.0
- 0.0
- 0.0
- 0.0
- 0.0
- 0.0
---
stamp:
  sec: 0
  nanosec: 0
error_code: 0
imu_state:
  quaternion:
  - -0.99948650598526
  - -0.007729890290647745
  - 0.02589614875614643
  - -0.017222482711076736
  gyroscope:
  - 0.0
  - 0.0
  - 0.0
  accelerometer:
  - 0.0
  - 0.0
  - 0.0
  rpy:
  - 0.014580112881958485
  - -0.05205546319484711
  - 0.03407967463135719
  temperature: 0
mode: 0
progress: 0.0
gait_type: 0
foot_raise_height: 0.0
position:
- 0.0010021887719631195
- -0.004869733937084675
- 0.726965606212616
body_height: 0.0
velocity:
- 1.538932359324008e-08
- 9.839364878416745e-08
- -4.921126333101711e-07
yaw_speed: 0.0034906582441180944
range_obstacle:
- 0.0
- 0.0
- 0.0
- 0.0
foot_force:
- 0
- 0
- 0
- 0
foot_position_body:
- 0.0
- 0.0
- 0.0
- 0.0
- 0.0
- 0.0
- 0.0
- 0.0
- 0.0
- 0.0
- 0.0
- 0.0
foot_speed_body:
- 0.0
- 0.0
- 0.0
- 0.0
- 0.0
- 0.0
- 0.0
- 0.0
- 0.0
- 0.0
- 0.0
- 0.0
---
stamp:
  sec: 0
  nanosec: 0
error_code: 0
imu_state:
  quaternion:
  - -0.99948650598526
  - -0.007729890290647745
  - 0.02589614875614643
  - -0.017222482711076736
  gyroscope:
  - 0.0
  - 0.0
  - 0.0
  accelerometer:
  - 0.0
  - 0.0
  - 0.0
  rpy:
  - 0.014580112881958485
  - -0.05205546319484711
  - 0.03407967463135719
  temperature: 0
mode: 0
progress: 0.0
gait_type: 0
foot_raise_height: 0.0
position:
- 0.0010021887719631195
- -0.004869733937084675
- 0.726965606212616
body_height: 0.0
velocity:
- 1.538932359324008e-08
- 9.839364878416745e-08
- -4.921126333101711e-07
yaw_speed: 0.0034906582441180944
range_obstacle:
- 0.0
- 0.0
- 0.0
- 0.0
foot_force:
- 0
- 0
- 0
- 0
foot_position_body:
- 0.0
- 0.0
- 0.0
- 0.0
- 0.0
- 0.0
- 0.0
- 0.0
- 0.0
- 0.0
- 0.0
- 0.0
foot_speed_body:
- 0.0
- 0.0
- 0.0
- 0.0
- 0.0
- 0.0
- 0.0
- 0.0
- 0.0
- 0.0
- 0.0
- 0.0
---
stamp:
  sec: 0
  nanosec: 0
error_code: 0
imu_state:
  quaternion:
  - -0.9994862079620361
  - -0.007735561579465866
  - 0.025905666872859
  - -0.017218951135873795
  gyroscope:
  - 0.0
  - 0.0
  - 0.0
  accelerometer:
  - 0.0
  - 0.0
  - 0.0
  rpy:
  - 0.014591332525014877
  - -0.05207464098930359
  - 0.034072183072566986
  temperature: 0
mode: 0
progress: 0.0
gait_type: 0
foot_raise_height: 0.0
position:
- 0.0009872950613498688
- -0.004880979657173157
- 0.7269655466079712
body_height: 0.0
velocity:
- -3.088597111400304e-07
- -1.5659357188724243e-07
- -4.827538191420899e-07
yaw_speed: 0.0
range_obstacle:
- 0.0
- 0.0
- 0.0
- 0.0
foot_force:
- 0
- 0
- 0
- 0
foot_position_body:
- 0.0
- 0.0
- 0.0
- 0.0
- 0.0
- 0.0
- 0.0
- 0.0
- 0.0
- 0.0
- 0.0
- 0.0
foot_speed_body:
- 0.0
- 0.0
- 0.0
- 0.0
- 0.0
- 0.0
- 0.0
- 0.0
- 0.0
- 0.0
- 0.0
- 0.0
---
stamp:
  sec: 0
  nanosec: 0
error_code: 0
imu_state:
  quaternion:
  - -0.9994862079620361
  - -0.007735561579465866
  - 0.025905666872859
  - -0.017218951135873795
  gyroscope:
  - 0.0
  - 0.0
  - 0.0
  accelerometer:
  - 0.0
  - 0.0
  - 0.0
  rpy:
  - 0.014591332525014877
  - -0.05207464098930359
  - 0.034072183072566986
  temperature: 0
mode: 0
progress: 0.0
gait_type: 0
foot_raise_height: 0.0
position:
- 0.0009872950613498688
- -0.004880979657173157
- 0.7269655466079712
body_height: 0.0
velocity:
- -3.088597111400304e-07
- -1.5659357188724243e-07
- -4.827538191420899e-07
yaw_speed: 0.0
range_obstacle:
- 0.0
- 0.0
- 0.0
- 0.0
foot_force:
- 0
- 0
- 0
- 0
foot_position_body:
- 0.0
- 0.0
- 0.0
- 0.0
- 0.0
- 0.0
- 0.0
- 0.0
- 0.0
- 0.0
- 0.0
- 0.0
foot_speed_body:
- 0.0
- 0.0
- 0.0
- 0.0
- 0.0
- 0.0
- 0.0
- 0.0
- 0.0
- 0.0
- 0.0
- 0.0
---
stamp:
  sec: 0
  nanosec: 0
error_code: 0
imu_state:
  quaternion:
  - -0.99948650598526
  - -0.007743210531771183
  - 0.025909151881933212
  - -0.01719338819384575
  gyroscope:
  - 0.0
  - 0.0
  - 0.0
  accelerometer:
  - 0.0
  - 0.0
  - 0.0
  rpy:
  - 0.014607860706746578
  - -0.05208149924874306
  - 0.0340205579996109
  temperature: 0
mode: 0
progress: 0.0
gait_type: 0
foot_raise_height: 0.0
position:
- 0.0009852834045886993
- -0.0048960475251078606
- 0.7269654870033264
body_height: 0.0
velocity:
- -2.6093863425558084e-07
- -4.0783083932183217e-07
- -5.105181912767875e-07
yaw_speed: -0.00523598724976182
range_obstacle:
- 0.0
- 0.0
- 0.0
- 0.0
foot_force:
- 0
- 0
- 0
- 0
foot_position_body:
- 0.0
- 0.0
- 0.0
- 0.0
- 0.0
- 0.0
- 0.0
- 0.0
- 0.0
- 0.0
- 0.0
- 0.0
foot_speed_body:
- 0.0
- 0.0
- 0.0
- 0.0
- 0.0
- 0.0
- 0.0
- 0.0
- 0.0
- 0.0
- 0.0
- 0.0
---
stamp:
  sec: 0
  nanosec: 0
error_code: 0
imu_state:
  quaternion:
  - -0.99948650598526
  - -0.007743210531771183
  - 0.025909151881933212
  - -0.01719338819384575
  gyroscope:
  - 0.0
  - 0.0
  - 0.0
  accelerometer:
  - 0.0
  - 0.0
  - 0.0
  rpy:
  - 0.014607860706746578
  - -0.05208149924874306
  - 0.0340205579996109
  temperature: 0
mode: 0
progress: 0.0
gait_type: 0
foot_raise_height: 0.0
position:
- 0.0009852834045886993
- -0.0048960475251078606
- 0.7269654870033264
body_height: 0.0
velocity:
- -2.6093863425558084e-07
- -4.0783083932183217e-07
- -5.105181912767875e-07
yaw_speed: -0.00523598724976182
range_obstacle:
- 0.0
- 0.0
- 0.0
- 0.0
foot_force:
- 0
- 0
- 0
- 0
foot_position_body:
- 0.0
- 0.0
- 0.0
- 0.0
- 0.0
- 0.0
- 0.0
- 0.0
- 0.0
- 0.0
- 0.0
- 0.0
foot_speed_body:
- 0.0
- 0.0
- 0.0
- 0.0
- 0.0
- 0.0
- 0.0
- 0.0
- 0.0
- 0.0
- 0.0
- 0.0
---
stamp:
  sec: 0
  nanosec: 0
error_code: 0
imu_state:
  quaternion:
  - -0.9994867444038391
  - -0.007744454778730869
  - 0.025910304859280586
  - -0.017178529873490334
  gyroscope:
  - 0.0
  - 0.0
  - 0.0
  accelerometer:
  - 0.0
  - 0.0
  - 0.0
  rpy:
  - 0.014611086808145046
  - -0.05208363011479378
  - 0.03399072587490082
  temperature: 0
mode: 0
progress: 0.0
gait_type: 0
foot_raise_height: 0.0
position:
- 0.000976022332906723
- -0.004901006817817688
- 0.7269654870033264
body_height: 0.0
velocity:
- -3.678570692500216e-07
- -3.5930338526668493e-07
- -4.878983759226685e-07
yaw_speed: 0.0
range_obstacle:
- 0.0
- 0.0
- 0.0
- 0.0
foot_force:
- 0
- 0
- 0
- 0
foot_position_body:
- 0.0
- 0.0
- 0.0
- 0.0
- 0.0
- 0.0
- 0.0
- 0.0
- 0.0
- 0.0
- 0.0
- 0.0
foot_speed_body:
- 0.0
- 0.0
- 0.0
- 0.0
- 0.0
- 0.0
- 0.0
- 0.0
- 0.0
- 0.0
- 0.0
- 0.0
---
stamp:
  sec: 0
  nanosec: 0
error_code: 0
imu_state:
  quaternion:
  - -0.9994867444038391
  - -0.007744454778730869
  - 0.025910304859280586
  - -0.017178529873490334
  gyroscope:
  - 0.0
  - 0.0
  - 0.0
  accelerometer:
  - 0.0
  - 0.0
  - 0.0
  rpy:
  - 0.014611086808145046
  - -0.05208363011479378
  - 0.03399072587490082
  temperature: 0
mode: 0
progress: 0.0
gait_type: 0
foot_raise_height: 0.0
position:
- 0.000976022332906723
- -0.004901006817817688
- 0.7269654870033264
body_height: 0.0
velocity:
- -3.678570692500216e-07
- -3.5930338526668493e-07
- -4.878983759226685e-07
yaw_speed: 0.0
range_obstacle:
- 0.0
- 0.0
- 0.0
- 0.0
foot_force:
- 0
- 0
- 0
- 0
foot_position_body:
- 0.0
- 0.0
- 0.0
- 0.0
- 0.0
- 0.0
- 0.0
- 0.0
- 0.0
- 0.0
- 0.0
- 0.0
foot_speed_body:
- 0.0
- 0.0
- 0.0
- 0.0
- 0.0
- 0.0
- 0.0
- 0.0
- 0.0
- 0.0
- 0.0
- 0.0
---
stamp:
  sec: 0
  nanosec: 0
error_code: 0
imu_state:
  quaternion:
  - -0.9994869232177734
  - -0.007741248235106468
  - 0.025906644761562347
  - -0.017176341265439987
  gyroscope:
  - 0.0
  - 0.0
  - 0.0
  accelerometer:
  - 0.0
  - 0.0
  - 0.0
  rpy:
  - 0.014604904688894749
  - -0.052076175808906555
  - 0.033986564725637436
  temperature: 0
mode: 0
progress: 0.0
gait_type: 0
foot_raise_height: 0.0
position:
- 0.0009772665798664093
- -0.004899695515632629
- 0.7269654870033264
body_height: 0.0
velocity:
- -2.2062340576667339e-07
- -2.085738373125423e-07
- -5.003197998121323e-07
yaw_speed: 0.0
range_obstacle:
- 0.0
- 0.0
- 0.0
- 0.0
foot_force:
- 0
- 0
- 0
- 0
foot_position_body:
- 0.0
- 0.0
- 0.0
- 0.0
- 0.0
- 0.0
- 0.0
- 0.0
- 0.0
- 0.0
- 0.0
- 0.0
foot_speed_body:
- 0.0
- 0.0
- 0.0
- 0.0
- 0.0
- 0.0
- 0.0
- 0.0
- 0.0
- 0.0
- 0.0
- 0.0
---
stamp:
  sec: 0
  nanosec: 0
error_code: 0
imu_state:
  quaternion:
  - -0.9994869232177734
  - -0.007741248235106468
  - 0.025906644761562347
  - -0.017176341265439987
  gyroscope:
  - 0.0
  - 0.0
  - 0.0
  accelerometer:
  - 0.0
  - 0.0
  - 0.0
  rpy:
  - 0.014604904688894749
  - -0.052076175808906555
  - 0.033986564725637436
  temperature: 0
mode: 0
progress: 0.0
gait_type: 0
foot_raise_height: 0.0
position:
- 0.0009772665798664093
- -0.004899695515632629
- 0.7269654870033264
body_height: 0.0
velocity:
- -2.2062340576667339e-07
- -2.085738373125423e-07
- -5.003197998121323e-07
yaw_speed: 0.0
range_obstacle:
- 0.0
- 0.0
- 0.0
- 0.0
foot_force:
- 0
- 0
- 0
- 0
foot_position_body:
- 0.0
- 0.0
- 0.0
- 0.0
- 0.0
- 0.0
- 0.0
- 0.0
- 0.0
- 0.0
- 0.0
- 0.0
foot_speed_body:
- 0.0
- 0.0
- 0.0
- 0.0
- 0.0
- 0.0
- 0.0
- 0.0
- 0.0
- 0.0
- 0.0
- 0.0
---
stamp:
  sec: 0
  nanosec: 0
error_code: 0
imu_state:
  quaternion:
  - -0.9994872808456421
  - -0.007743251975625753
  - 0.025899995118379593
  - -0.017167450860142708
  gyroscope:
  - 0.0
  - 0.0
  - 0.0
  accelerometer:
  - 0.0
  - 0.0
  - 0.0
  rpy:
  - 0.01460960041731596
  - -0.05206281319260597
  - 0.0339687317609787
  temperature: 0
mode: 0
progress: 0.0
gait_type: 0
foot_raise_height: 0.0
position:
- 0.0009844377636909485
- -0.004902224987745285
- 0.7269654273986816
body_height: 0.0
velocity:
- -1.021852646942989e-08
- -1.9393937122913485e-07
- -5.479554374687723e-07
yaw_speed: 0.0
range_obstacle:
- 0.0
- 0.0
- 0.0
- 0.0
foot_force:
- 0
- 0
- 0
- 0
foot_position_body:
- 0.0
- 0.0
- 0.0
- 0.0
- 0.0
- 0.0
- 0.0
- 0.0
- 0.0
- 0.0
- 0.0
- 0.0
foot_speed_body:
- 0.0
- 0.0
- 0.0
- 0.0
- 0.0
- 0.0
- 0.0
- 0.0
- 0.0
- 0.0
- 0.0
- 0.0
---
stamp:
  sec: 0
  nanosec: 0
error_code: 0
imu_state:
  quaternion:
  - -0.9994872808456421
  - -0.007743251975625753
  - 0.025899995118379593
  - -0.017167450860142708
  gyroscope:
  - 0.0
  - 0.0
  - 0.0
  accelerometer:
  - 0.0
  - 0.0
  - 0.0
  rpy:
  - 0.01460960041731596
  - -0.05206281319260597
  - 0.0339687317609787
  temperature: 0
mode: 0
progress: 0.0
gait_type: 0
foot_raise_height: 0.0
position:
- 0.0009844377636909485
- -0.004902224987745285
- 0.7269654273986816
body_height: 0.0
velocity:
- -1.021852646942989e-08
- -1.9393937122913485e-07
- -5.479554374687723e-07
yaw_speed: 0.0
range_obstacle:
- 0.0
- 0.0
- 0.0
- 0.0
foot_force:
- 0
- 0
- 0
- 0
foot_position_body:
- 0.0
- 0.0
- 0.0
- 0.0
- 0.0
- 0.0
- 0.0
- 0.0
- 0.0
- 0.0
- 0.0
- 0.0
foot_speed_body:
- 0.0
- 0.0
- 0.0
- 0.0
- 0.0
- 0.0
- 0.0
- 0.0
- 0.0
- 0.0
- 0.0
- 0.0
---
stamp:
  sec: 0
  nanosec: 0
error_code: 0
imu_state:
  quaternion:
  - -0.9994874000549316
  - -0.007744972128421068
  - 0.025896351784467697
  - -0.017163313925266266
  gyroscope:
  - 0.0
  - 0.0
  - 0.0
  accelerometer:
  - 0.0
  - 0.0
  - 0.0
  rpy:
  - 0.014613380655646324
  - -0.052055519074201584
  - 0.03396041691303253
  temperature: 0
mode: 0
progress: 0.0
gait_type: 0
foot_raise_height: 0.0
position:
- 0.0009914897382259369
- -0.004904036410152912
- 0.7269653081893921
body_height: 0.0
velocity:
- 1.2488833078805328e-07
- -1.7140777686108777e-07
- -6.162351269267674e-07
yaw_speed: 0.0034906582441180944
range_obstacle:
- 0.0
- 0.0
- 0.0
- 0.0
foot_force:
- 0
- 0
- 0
- 0
foot_position_body:
- 0.0
- 0.0
- 0.0
- 0.0
- 0.0
- 0.0
- 0.0
- 0.0
- 0.0
- 0.0
- 0.0
- 0.0
foot_speed_body:
- 0.0
- 0.0
- 0.0
- 0.0
- 0.0
- 0.0
- 0.0
- 0.0
- 0.0
- 0.0
- 0.0
- 0.0
---
stamp:
  sec: 0
  nanosec: 0
error_code: 0
imu_state:
  quaternion:
  - -0.9994874000549316
  - -0.007744972128421068
  - 0.025896351784467697
  - -0.017163313925266266
  gyroscope:
  - 0.0
  - 0.0
  - 0.0
  accelerometer:
  - 0.0
  - 0.0
  - 0.0
  rpy:
  - 0.014613380655646324
  - -0.052055519074201584
  - 0.03396041691303253
  temperature: 0
mode: 0
progress: 0.0
gait_type: 0
foot_raise_height: 0.0
position:
- 0.0009914897382259369
- -0.004904036410152912
- 0.7269653081893921
body_height: 0.0
velocity:
- 1.2488833078805328e-07
- -1.7140777686108777e-07
- -6.162351269267674e-07
yaw_speed: 0.0034906582441180944
range_obstacle:
- 0.0
- 0.0
- 0.0
- 0.0
foot_force:
- 0
- 0
- 0
- 0
foot_position_body:
- 0.0
- 0.0
- 0.0
- 0.0
- 0.0
- 0.0
- 0.0
- 0.0
- 0.0
- 0.0
- 0.0
- 0.0
foot_speed_body:
- 0.0
- 0.0
- 0.0
- 0.0
- 0.0
- 0.0
- 0.0
- 0.0
- 0.0
- 0.0
- 0.0
- 0.0
---
stamp:
  sec: 0
  nanosec: 0
error_code: 0
imu_state:
  quaternion:
  - -0.999487042427063
  - -0.007745528127998114
  - 0.025898082181811333
  - -0.017183056101202965
  gyroscope:
  - 0.0
  - 0.0
  - 0.0
  accelerometer:
  - 0.0
  - 0.0
  - 0.0
  rpy:
  - 0.014613407664000988
  - -0.05205928906798363
  - 0.03399989381432533
  temperature: 0
mode: 0
progress: 0.0
gait_type: 0
foot_raise_height: 0.0
position:
- 0.000991620123386383
- -0.004900675266981125
- 0.7269652485847473
body_height: 0.0
velocity:
- 7.197992601959413e-08
- -4.378009066385857e-08
- -6.60348234760022e-07
yaw_speed: 0.012217302806675434
range_obstacle:
- 0.0
- 0.0
- 0.0
- 0.0
foot_force:
- 0
- 0
- 0
- 0
foot_position_body:
- 0.0
- 0.0
- 0.0
- 0.0
- 0.0
- 0.0
- 0.0
- 0.0
- 0.0
- 0.0
- 0.0
- 0.0
foot_speed_body:
- 0.0
- 0.0
- 0.0
- 0.0
- 0.0
- 0.0
- 0.0
- 0.0
- 0.0
- 0.0
- 0.0
- 0.0
---
stamp:
  sec: 0
  nanosec: 0
error_code: 0
imu_state:
  quaternion:
  - -0.999487042427063
  - -0.007745528127998114
  - 0.025898082181811333
  - -0.017183056101202965
  gyroscope:
  - 0.0
  - 0.0
  - 0.0
  accelerometer:
  - 0.0
  - 0.0
  - 0.0
  rpy:
  - 0.014613407664000988
  - -0.05205928906798363
  - 0.03399989381432533
  temperature: 0
mode: 0
progress: 0.0
gait_type: 0
foot_raise_height: 0.0
position:
- 0.000991620123386383
- -0.004900675266981125
- 0.7269652485847473
body_height: 0.0
velocity:
- 7.197992601959413e-08
- -4.378009066385857e-08
- -6.60348234760022e-07
yaw_speed: 0.012217302806675434
range_obstacle:
- 0.0
- 0.0
- 0.0
- 0.0
foot_force:
- 0
- 0
- 0
- 0
foot_position_body:
- 0.0
- 0.0
- 0.0
- 0.0
- 0.0
- 0.0
- 0.0
- 0.0
- 0.0
- 0.0
- 0.0
- 0.0
foot_speed_body:
- 0.0
- 0.0
- 0.0
- 0.0
- 0.0
- 0.0
- 0.0
- 0.0
- 0.0
- 0.0
- 0.0
- 0.0
---
stamp:
  sec: 0
  nanosec: 0
error_code: 0
imu_state:
  quaternion:
  - -0.9994863867759705
  - -0.0077443732880055904
  - 0.025904422625899315
  - -0.017207089811563492
  gyroscope:
  - 0.0
  - 0.0
  - 0.0
  accelerometer:
  - 0.0
  - 0.0
  - 0.0
  rpy:
  - 0.014609632082283497
  - -0.052072279155254364
  - 0.034047991037368774
  temperature: 0
mode: 0
progress: 0.0
gait_type: 0
foot_raise_height: 0.0
position:
- 0.0009850598871707916
- -0.00489652156829834
- 0.7269651889801025
body_height: 0.0
velocity:
- -9.813464885155554e-08
- 5.839413930175397e-08
- -6.627171273976273e-07
yaw_speed: 0.00872664526104927
range_obstacle:
- 0.0
- 0.0
- 0.0
- 0.0
foot_force:
- 0
- 0
- 0
- 0
foot_position_body:
- 0.0
- 0.0
- 0.0
- 0.0
- 0.0
- 0.0
- 0.0
- 0.0
- 0.0
- 0.0
- 0.0
- 0.0
foot_speed_body:
- 0.0
- 0.0
- 0.0
- 0.0
- 0.0
- 0.0
- 0.0
- 0.0
- 0.0
- 0.0
- 0.0
- 0.0
---
stamp:
  sec: 0
  nanosec: 0
error_code: 0
imu_state:
  quaternion:
  - -0.9994863867759705
  - -0.0077443732880055904
  - 0.025904422625899315
  - -0.017207089811563492
  gyroscope:
  - 0.0
  - 0.0
  - 0.0
  accelerometer:
  - 0.0
  - 0.0
  - 0.0
  rpy:
  - 0.014609632082283497
  - -0.052072279155254364
  - 0.034047991037368774
  temperature: 0
mode: 0
progress: 0.0
gait_type: 0
foot_raise_height: 0.0
position:
- 0.0009850598871707916
- -0.00489652156829834
- 0.7269651889801025
body_height: 0.0
velocity:
- -9.813464885155554e-08
- 5.839413930175397e-08
- -6.627171273976273e-07
yaw_speed: 0.00872664526104927
range_obstacle:
- 0.0
- 0.0
- 0.0
- 0.0
foot_force:
- 0
- 0
- 0
- 0
foot_position_body:
- 0.0
- 0.0
- 0.0
- 0.0
- 0.0
- 0.0
- 0.0
- 0.0
- 0.0
- 0.0
- 0.0
- 0.0
foot_speed_body:
- 0.0
- 0.0
- 0.0
- 0.0
- 0.0
- 0.0
- 0.0
- 0.0
- 0.0
- 0.0
- 0.0
- 0.0
---
stamp:
  sec: 0
  nanosec: 0
error_code: 0
imu_state:
  quaternion:
  - -0.9994863867759705
  - -0.0077469078823924065
  - 0.025905989110469818
  - -0.017204131931066513
  gyroscope:
  - 0.0
  - 0.0
  - 0.0
  accelerometer:
  - 0.0
  - 0.0
  - 0.0
  rpy:
  - 0.01461480837315321
  - -0.05207546055316925
  - 0.03404191881418228
  temperature: 0
mode: 0
progress: 0.0
gait_type: 0
foot_raise_height: 0.0
position:
- 0.0009734891355037689
- -0.004895713180303574
- 0.7269652485847473
body_height: 0.0
velocity:
- -3.0699246167387173e-07
- 5.979867978567199e-08
- -5.865092589374399e-07
yaw_speed: 0.0
range_obstacle:
- 0.0
- 0.0
- 0.0
- 0.0
foot_force:
- 0
- 0
- 0
- 0
foot_position_body:
- 0.0
- 0.0
- 0.0
- 0.0
- 0.0
- 0.0
- 0.0
- 0.0
- 0.0
- 0.0
- 0.0
- 0.0
foot_speed_body:
- 0.0
- 0.0
- 0.0
- 0.0
- 0.0
- 0.0
- 0.0
- 0.0
- 0.0
- 0.0
- 0.0
- 0.0
---
stamp:
  sec: 0
  nanosec: 0
error_code: 0
imu_state:
  quaternion:
  - -0.9994863867759705
  - -0.0077469078823924065
  - 0.025905989110469818
  - -0.017204131931066513
  gyroscope:
  - 0.0
  - 0.0
  - 0.0
  accelerometer:
  - 0.0
  - 0.0
  - 0.0
  rpy:
  - 0.01461480837315321
  - -0.05207546055316925
  - 0.03404191881418228
  temperature: 0
mode: 0
progress: 0.0
gait_type: 0
foot_raise_height: 0.0
position:
- 0.0009734891355037689
- -0.004895713180303574
- 0.7269652485847473
body_height: 0.0
velocity:
- -3.0699246167387173e-07
- 5.979867978567199e-08
- -5.865092589374399e-07
yaw_speed: 0.0
range_obstacle:
- 0.0
- 0.0
- 0.0
- 0.0
foot_force:
- 0
- 0
- 0
- 0
foot_position_body:
- 0.0
- 0.0
- 0.0
- 0.0
- 0.0
- 0.0
- 0.0
- 0.0
- 0.0
- 0.0
- 0.0
- 0.0
foot_speed_body:
- 0.0
- 0.0
- 0.0
- 0.0
- 0.0
- 0.0
- 0.0
- 0.0
- 0.0
- 0.0
- 0.0
- 0.0
---
stamp:
  sec: 0
  nanosec: 0
error_code: 0
imu_state:
  quaternion:
  - -0.9994866251945496
  - -0.007743142545223236
  - 0.0259025227278471
  - -0.017200732603669167
  gyroscope:
  - 0.0
  - 0.0
  - 0.0
  accelerometer:
  - 0.0
  - 0.0
  - 0.0
  rpy:
  - 0.014607561752200127
  - -0.052068352699279785
  - 0.03403535112738609
  temperature: 0
mode: 0
progress: 0.0
gait_type: 0
foot_raise_height: 0.0
position:
- 0.0009804964065551758
- -0.004896710626780987
- 0.7269651889801025
body_height: 0.0
velocity:
- -6.859779944079492e-08
- 9.99096894105378e-09
- -6.15659473623964e-07
yaw_speed: 0.00523598724976182
range_obstacle:
- 0.0
- 0.0
- 0.0
- 0.0
foot_force:
- 0
- 0
- 0
- 0
foot_position_body:
- 0.0
- 0.0
- 0.0
- 0.0
- 0.0
- 0.0
- 0.0
- 0.0
- 0.0
- 0.0
- 0.0
- 0.0
foot_speed_body:
- 0.0
- 0.0
- 0.0
- 0.0
- 0.0
- 0.0
- 0.0
- 0.0
- 0.0
- 0.0
- 0.0
- 0.0
---
stamp:
  sec: 0
  nanosec: 0
error_code: 0
imu_state:
  quaternion:
  - -0.9994866251945496
  - -0.007743142545223236
  - 0.0259025227278471
  - -0.017200732603669167
  gyroscope:
  - 0.0
  - 0.0
  - 0.0
  accelerometer:
  - 0.0
  - 0.0
  - 0.0
  rpy:
  - 0.014607561752200127
  - -0.052068352699279785
  - 0.03403535112738609
  temperature: 0
mode: 0
progress: 0.0
gait_type: 0
foot_raise_height: 0.0
position:
- 0.0009804964065551758
- -0.004896710626780987
- 0.7269651889801025
body_height: 0.0
velocity:
- -6.859779944079492e-08
- 9.99096894105378e-09
- -6.15659473623964e-07
yaw_speed: 0.00523598724976182
range_obstacle:
- 0.0
- 0.0
- 0.0
- 0.0
foot_force:
- 0
- 0
- 0
- 0
foot_position_body:
- 0.0
- 0.0
- 0.0
- 0.0
- 0.0
- 0.0
- 0.0
- 0.0
- 0.0
- 0.0
- 0.0
- 0.0
foot_speed_body:
- 0.0
- 0.0
- 0.0
- 0.0
- 0.0
- 0.0
- 0.0
- 0.0
- 0.0
- 0.0
- 0.0
- 0.0
---
stamp:
  sec: 0
  nanosec: 0
error_code: 0
imu_state:
  quaternion:
  - -0.9994867444038391
  - -0.0077428356744349
  - 0.025890063494443893
  - -0.017210889607667923
  gyroscope:
  - 0.0
  - 0.0
  - 0.0
  accelerometer:
  - 0.0
  - 0.0
  - 0.0
  rpy:
  - 0.014606834389269352
  - -0.05204356461763382
  - 0.03405587002635002
  temperature: 0
mode: 0
progress: 0.0
gait_type: 0
foot_raise_height: 0.0
position:
- 0.0009886696934700012
- -0.004891820251941681
- 0.726965069770813
body_height: 0.0
velocity:
- 1.1045617043237144e-07
- 9.582621629533605e-08
- -6.787480515413336e-07
yaw_speed: 0.00523598724976182
range_obstacle:
- 0.0
- 0.0
- 0.0
- 0.0
foot_force:
- 0
- 0
- 0
- 0
foot_position_body:
- 0.0
- 0.0
- 0.0
- 0.0
- 0.0
- 0.0
- 0.0
- 0.0
- 0.0
- 0.0
- 0.0
- 0.0
foot_speed_body:
- 0.0
- 0.0
- 0.0
- 0.0
- 0.0
- 0.0
- 0.0
- 0.0
- 0.0
- 0.0
- 0.0
- 0.0
---
stamp:
  sec: 0
  nanosec: 0
error_code: 0
imu_state:
  quaternion:
  - -0.9994867444038391
  - -0.0077428356744349
  - 0.025890063494443893
  - -0.017210889607667923
  gyroscope:
  - 0.0
  - 0.0
  - 0.0
  accelerometer:
  - 0.0
  - 0.0
  - 0.0
  rpy:
  - 0.014606834389269352
  - -0.05204356461763382
  - 0.03405587002635002
  temperature: 0
mode: 0
progress: 0.0
gait_type: 0
foot_raise_height: 0.0
position:
- 0.0009886696934700012
- -0.004891820251941681
- 0.726965069770813
body_height: 0.0
velocity:
- 1.1045617043237144e-07
- 9.582621629533605e-08
- -6.787480515413336e-07
yaw_speed: 0.00523598724976182
range_obstacle:
- 0.0
- 0.0
- 0.0
- 0.0
foot_force:
- 0
- 0
- 0
- 0
foot_position_body:
- 0.0
- 0.0
- 0.0
- 0.0
- 0.0
- 0.0
- 0.0
- 0.0
- 0.0
- 0.0
- 0.0
- 0.0
foot_speed_body:
- 0.0
- 0.0
- 0.0
- 0.0
- 0.0
- 0.0
- 0.0
- 0.0
- 0.0
- 0.0
- 0.0
- 0.0
---
stamp:
  sec: 0
  nanosec: 0
error_code: 0
imu_state:
  quaternion:
  - -0.9994869828224182
  - -0.007747865281999111
  - 0.025872210040688515
  - -0.017218980938196182
  gyroscope:
  - 0.0
  - 0.0
  - 0.0
  accelerometer:
  - 0.0
  - 0.0
  - 0.0
  rpy:
  - 0.014617077074944973
  - -0.05200813710689545
  - 0.03407203406095505
  temperature: 0
mode: 0
progress: 0.0
gait_type: 0
foot_raise_height: 0.0
position:
- 0.0010093525052070618
- -0.0048979101702570915
- 0.7269648313522339
body_height: 0.0
velocity:
- 4.664604773552128e-07
- -8.16134431147475e-08
- -8.243836759902479e-07
yaw_speed: 0.0017453291220590472
range_obstacle:
- 0.0
- 0.0
- 0.0
- 0.0
foot_force:
- 0
- 0
- 0
- 0
foot_position_body:
- 0.0
- 0.0
- 0.0
- 0.0
- 0.0
- 0.0
- 0.0
- 0.0
- 0.0
- 0.0
- 0.0
- 0.0
foot_speed_body:
- 0.0
- 0.0
- 0.0
- 0.0
- 0.0
- 0.0
- 0.0
- 0.0
- 0.0
- 0.0
- 0.0
- 0.0
---
stamp:
  sec: 0
  nanosec: 0
error_code: 0
imu_state:
  quaternion:
  - -0.9994869828224182
  - -0.007747865281999111
  - 0.025872210040688515
  - -0.017218980938196182
  gyroscope:
  - 0.0
  - 0.0
  - 0.0
  accelerometer:
  - 0.0
  - 0.0
  - 0.0
  rpy:
  - 0.014617077074944973
  - -0.05200813710689545
  - 0.03407203406095505
  temperature: 0
mode: 0
progress: 0.0
gait_type: 0
foot_raise_height: 0.0
position:
- 0.0010093525052070618
- -0.0048979101702570915
- 0.7269648313522339
body_height: 0.0
velocity:
- 4.664604773552128e-07
- -8.16134431147475e-08
- -8.243836759902479e-07
yaw_speed: 0.0017453291220590472
range_obstacle:
- 0.0
- 0.0
- 0.0
- 0.0
foot_force:
- 0
- 0
- 0
- 0
foot_position_body:
- 0.0
- 0.0
- 0.0
- 0.0
- 0.0
- 0.0
- 0.0
- 0.0
- 0.0
- 0.0
- 0.0
- 0.0
foot_speed_body:
- 0.0
- 0.0
- 0.0
- 0.0
- 0.0
- 0.0
- 0.0
- 0.0
- 0.0
- 0.0
- 0.0
- 0.0
---
stamp:
  sec: 0
  nanosec: 0
error_code: 0
imu_state:
  quaternion:
  - -0.9994871020317078
  - -0.007749905809760094
  - 0.02586863934993744
  - -0.01721695438027382
  gyroscope:
  - 0.0
  - 0.0
  - 0.0
  accelerometer:
  - 0.0
  - 0.0
  - 0.0
  rpy:
  - 0.014621387235820293
  - -0.05200103670358658
  - 0.03406791388988495
  temperature: 0
mode: 0
progress: 0.0
gait_type: 0
foot_raise_height: 0.0
position:
- 0.001023896038532257
- -0.00490157213062048
- 0.72696453332901
body_height: 0.0
velocity:
- 5.680720391865179e-07
- -1.4390982983059075e-07
- -1.0131458338946686e-06
yaw_speed: 0.0017453291220590472
range_obstacle:
- 0.0
- 0.0
- 0.0
- 0.0
foot_force:
- 0
- 0
- 0
- 0
foot_position_body:
- 0.0
- 0.0
- 0.0
- 0.0
- 0.0
- 0.0
- 0.0
- 0.0
- 0.0
- 0.0
- 0.0
- 0.0
foot_speed_body:
- 0.0
- 0.0
- 0.0
- 0.0
- 0.0
- 0.0
- 0.0
- 0.0
- 0.0
- 0.0
- 0.0
- 0.0
---
stamp:
  sec: 0
  nanosec: 0
error_code: 0
imu_state:
  quaternion:
  - -0.9994871020317078
  - -0.007749905809760094
  - 0.02586863934993744
  - -0.01721695438027382
  gyroscope:
  - 0.0
  - 0.0
  - 0.0
  accelerometer:
  - 0.0
  - 0.0
  - 0.0
  rpy:
  - 0.014621387235820293
  - -0.05200103670358658
  - 0.03406791388988495
  temperature: 0
mode: 0
progress: 0.0
gait_type: 0
foot_raise_height: 0.0
position:
- 0.001023896038532257
- -0.00490157213062048
- 0.72696453332901
body_height: 0.0
velocity:
- 5.680720391865179e-07
- -1.4390982983059075e-07
- -1.0131458338946686e-06
yaw_speed: 0.0017453291220590472
range_obstacle:
- 0.0
- 0.0
- 0.0
- 0.0
foot_force:
- 0
- 0
- 0
- 0
foot_position_body:
- 0.0
- 0.0
- 0.0
- 0.0
- 0.0
- 0.0
- 0.0
- 0.0
- 0.0
- 0.0
- 0.0
- 0.0
foot_speed_body:
- 0.0
- 0.0
- 0.0
- 0.0
- 0.0
- 0.0
- 0.0
- 0.0
- 0.0
- 0.0
- 0.0
- 0.0
---
stamp:
  sec: 0
  nanosec: 0
error_code: 0
imu_state:
  quaternion:
  - -0.9994872212409973
  - -0.0077535053715109825
  - 0.025861935690045357
  - -0.017218416556715965
  gyroscope:
  - 0.0
  - 0.0
  - 0.0
  accelerometer:
  - 0.0
  - 0.0
  - 0.0
  rpy:
  - 0.014628739096224308
  - -0.05198776721954346
  - 0.03407074138522148
  temperature: 0
mode: 0
progress: 0.0
gait_type: 0
foot_raise_height: 0.0
position:
- 0.0010326765477657318
- -0.004902097396552563
- 0.7269642353057861
body_height: 0.0
velocity:
- 5.157442046765937e-07
- -1.1741637706563779e-07
- -1.1954215324294637e-06
yaw_speed: 0.0017453291220590472
range_obstacle:
- 0.0
- 0.0
- 0.0
- 0.0
foot_force:
- 0
- 0
- 0
- 0
foot_position_body:
- 0.0
- 0.0
- 0.0
- 0.0
- 0.0
- 0.0
- 0.0
- 0.0
- 0.0
- 0.0
- 0.0
- 0.0
foot_speed_body:
- 0.0
- 0.0
- 0.0
- 0.0
- 0.0
- 0.0
- 0.0
- 0.0
- 0.0
- 0.0
- 0.0
- 0.0
---
stamp:
  sec: 0
  nanosec: 0
error_code: 0
imu_state:
  quaternion:
  - -0.9994872212409973
  - -0.0077535053715109825
  - 0.025861935690045357
  - -0.017218416556715965
  gyroscope:
  - 0.0
  - 0.0
  - 0.0
  accelerometer:
  - 0.0
  - 0.0
  - 0.0
  rpy:
  - 0.014628739096224308
  - -0.05198776721954346
  - 0.03407074138522148
  temperature: 0
mode: 0
progress: 0.0
gait_type: 0
foot_raise_height: 0.0
position:
- 0.0010326765477657318
- -0.004902097396552563
- 0.7269642353057861
body_height: 0.0
velocity:
- 5.157442046765937e-07
- -1.1741637706563779e-07
- -1.1954215324294637e-06
yaw_speed: 0.0017453291220590472
range_obstacle:
- 0.0
- 0.0
- 0.0
- 0.0
foot_force:
- 0
- 0
- 0
- 0
foot_position_body:
- 0.0
- 0.0
- 0.0
- 0.0
- 0.0
- 0.0
- 0.0
- 0.0
- 0.0
- 0.0
- 0.0
- 0.0
foot_speed_body:
- 0.0
- 0.0
- 0.0
- 0.0
- 0.0
- 0.0
- 0.0
- 0.0
- 0.0
- 0.0
- 0.0
- 0.0
---
stamp:
  sec: 0
  nanosec: 0
error_code: 0
imu_state:
  quaternion:
  - -0.999487578868866
  - -0.007755360100418329
  - 0.02585378848016262
  - -0.01720830239355564
  gyroscope:
  - 0.0
  - 0.0
  - 0.0
  accelerometer:
  - 0.0
  - 0.0
  - 0.0
  rpy:
  - 0.014633250422775745
  - -0.05197138711810112
  - 0.03405049815773964
  temperature: 0
mode: 0
progress: 0.0
gait_type: 0
foot_raise_height: 0.0
position:
- 0.001046888530254364
- -0.004907156340777874
- 0.7269638776779175
body_height: 0.0
velocity:
- 5.833884983985627e-07
- -1.975390659936238e-07
- -1.421553633917938e-06
yaw_speed: -0.0017453291220590472
range_obstacle:
- 0.0
- 0.0
- 0.0
- 0.0
foot_force:
- 0
- 0
- 0
- 0
foot_position_body:
- 0.0
- 0.0
- 0.0
- 0.0
- 0.0
- 0.0
- 0.0
- 0.0
- 0.0
- 0.0
- 0.0
- 0.0
foot_speed_body:
- 0.0
- 0.0
- 0.0
- 0.0
- 0.0
- 0.0
- 0.0
- 0.0
- 0.0
- 0.0
- 0.0
- 0.0
---
stamp:
  sec: 0
  nanosec: 0
error_code: 0
imu_state:
  quaternion:
  - -0.999487578868866
  - -0.007755360100418329
  - 0.02585378848016262
  - -0.01720830239355564
  gyroscope:
  - 0.0
  - 0.0
  - 0.0
  accelerometer:
  - 0.0
  - 0.0
  - 0.0
  rpy:
  - 0.014633250422775745
  - -0.05197138711810112
  - 0.03405049815773964
  temperature: 0
mode: 0
progress: 0.0
gait_type: 0
foot_raise_height: 0.0
position:
- 0.001046888530254364
- -0.004907156340777874
- 0.7269638776779175
body_height: 0.0
velocity:
- 5.833884983985627e-07
- -1.975390659936238e-07
- -1.421553633917938e-06
yaw_speed: -0.0017453291220590472
range_obstacle:
- 0.0
- 0.0
- 0.0
- 0.0
foot_force:
- 0
- 0
- 0
- 0
foot_position_body:
- 0.0
- 0.0
- 0.0
- 0.0
- 0.0
- 0.0
- 0.0
- 0.0
- 0.0
- 0.0
- 0.0
- 0.0
foot_speed_body:
- 0.0
- 0.0
- 0.0
- 0.0
- 0.0
- 0.0
- 0.0
- 0.0
- 0.0
- 0.0
- 0.0
- 0.0
---
stamp:
  sec: 0
  nanosec: 0
error_code: 0
imu_state:
  quaternion:
  - -0.9994880557060242
  - -0.0077505954541265965
  - 0.025853779166936874
  - -0.01718723401427269
  gyroscope:
  - 0.0
  - 0.0
  - 0.0
  accelerometer:
  - 0.0
  - 0.0
  - 0.0
  rpy:
  - 0.014624807983636856
  - -0.05197089910507202
  - 0.034008562564849854
  temperature: 0
mode: 0
progress: 0.0
gait_type: 0
foot_raise_height: 0.0
position:
- 0.0010562390089035034
- -0.004905426874756813
- 0.726963460445404
body_height: 0.0
velocity:
- 5.284282451611944e-07
- -1.095500294923113e-07
- -1.657300799706718e-06
yaw_speed: -0.0017453291220590472
range_obstacle:
- 0.0
- 0.0
- 0.0
- 0.0
foot_force:
- 0
- 0
- 0
- 0
foot_position_body:
- 0.0
- 0.0
- 0.0
- 0.0
- 0.0
- 0.0
- 0.0
- 0.0
- 0.0
- 0.0
- 0.0
- 0.0
foot_speed_body:
- 0.0
- 0.0
- 0.0
- 0.0
- 0.0
- 0.0
- 0.0
- 0.0
- 0.0
- 0.0
- 0.0
- 0.0
---
stamp:
  sec: 0
  nanosec: 0
error_code: 0
imu_state:
  quaternion:
  - -0.9994880557060242
  - -0.0077505954541265965
  - 0.025853779166936874
  - -0.01718723401427269
  gyroscope:
  - 0.0
  - 0.0
  - 0.0
  accelerometer:
  - 0.0
  - 0.0
  - 0.0
  rpy:
  - 0.014624807983636856
  - -0.05197089910507202
  - 0.034008562564849854
  temperature: 0
mode: 0
progress: 0.0
gait_type: 0
foot_raise_height: 0.0
position:
- 0.0010562390089035034
- -0.004905426874756813
- 0.726963460445404
body_height: 0.0
velocity:
- 5.284282451611944e-07
- -1.095500294923113e-07
- -1.657300799706718e-06
yaw_speed: -0.0017453291220590472
range_obstacle:
- 0.0
- 0.0
- 0.0
- 0.0
foot_force:
- 0
- 0
- 0
- 0
foot_position_body:
- 0.0
- 0.0
- 0.0
- 0.0
- 0.0
- 0.0
- 0.0
- 0.0
- 0.0
- 0.0
- 0.0
- 0.0
foot_speed_body:
- 0.0
- 0.0
- 0.0
- 0.0
- 0.0
- 0.0
- 0.0
- 0.0
- 0.0
- 0.0
- 0.0
- 0.0
---
stamp:
  sec: 0
  nanosec: 0
error_code: 0
imu_state:
  quaternion:
  - -0.9994882345199585
  - -0.007746693212538958
  - 0.02585526369512081
  - -0.017177904024720192
  gyroscope:
  - 0.0
  - 0.0
  - 0.0
  accelerometer:
  - 0.0
  - 0.0
  - 0.0
  rpy:
  - 0.014617431908845901
  - -0.051973599940538406
  - 0.03399006649851799
  temperature: 0
mode: 0
progress: 0.0
gait_type: 0
foot_raise_height: 0.0
position:
- 0.0010520778596401215
- -0.004903091117739677
- 0.7269631624221802
body_height: 0.0
velocity:
- 2.1869769284421636e-07
- -3.138832482818543e-08
- -1.820706870603317e-06
yaw_speed: 0.0
range_obstacle:
- 0.0
- 0.0
- 0.0
- 0.0
foot_force:
- 0
- 0
- 0
- 0
foot_position_body:
- 0.0
- 0.0
- 0.0
- 0.0
- 0.0
- 0.0
- 0.0
- 0.0
- 0.0
- 0.0
- 0.0
- 0.0
foot_speed_body:
- 0.0
- 0.0
- 0.0
- 0.0
- 0.0
- 0.0
- 0.0
- 0.0
- 0.0
- 0.0
- 0.0
- 0.0
---
stamp:
  sec: 0
  nanosec: 0
error_code: 0
imu_state:
  quaternion:
  - -0.9994882345199585
  - -0.007746693212538958
  - 0.02585526369512081
  - -0.017177904024720192
  gyroscope:
  - 0.0
  - 0.0
  - 0.0
  accelerometer:
  - 0.0
  - 0.0
  - 0.0
  rpy:
  - 0.014617431908845901
  - -0.051973599940538406
  - 0.03399006649851799
  temperature: 0
mode: 0
progress: 0.0
gait_type: 0
foot_raise_height: 0.0
position:
- 0.0010520778596401215
- -0.004903091117739677
- 0.7269631624221802
body_height: 0.0
velocity:
- 2.1869769284421636e-07
- -3.138832482818543e-08
- -1.820706870603317e-06
yaw_speed: 0.0
range_obstacle:
- 0.0
- 0.0
- 0.0
- 0.0
foot_force:
- 0
- 0
- 0
- 0
foot_position_body:
- 0.0
- 0.0
- 0.0
- 0.0
- 0.0
- 0.0
- 0.0
- 0.0
- 0.0
- 0.0
- 0.0
- 0.0
foot_speed_body:
- 0.0
- 0.0
- 0.0
- 0.0
- 0.0
- 0.0
- 0.0
- 0.0
- 0.0
- 0.0
- 0.0
- 0.0
---
stamp:
  sec: 0
  nanosec: 0
error_code: 0
imu_state:
  quaternion:
  - -0.9994879364967346
  - -0.0077464343048632145
  - 0.025865111500024796
  - -0.017180321738123894
  gyroscope:
  - 0.0
  - 0.0
  - 0.0
  accelerometer:
  - 0.0
  - 0.0
  - 0.0
  rpy:
  - 0.014616461470723152
  - -0.05199332535266876
  - 0.03399479016661644
  temperature: 0
mode: 0
progress: 0.0
gait_type: 0
foot_raise_height: 0.0
position:
- 0.001038186252117157
